{"type": "FeatureCollection", "features": [{"type": "Feature", "geometry": {"type": "Point", "coordinates": [69.341343, 29.948497]}, "properties": {"cartodb_id": 180, "pop_2015": 73224000, "continent_name": "Asia", "country_code": "PAK", "country_name": "Pakistan", "count": 50}}, {"type": "Feature", "geometry": {"type": "Point", "coordinates": [59.375961, 39.115934]}, "properties": {"cartodb_id": 182, "pop_2015": 2689000, "continent_name": "Asia", "country_code": "TKM", "country_name": "Turkmenistan", "count": 6}}, {"type": "Feature", "geometry": {"type": "Point", "coordinates": [18.646251, 15.333078]}, "properties": {"cartodb_id": 160, "pop_2015": 3154000, "continent_name": "Africa", "country_code": "TCD", "country_name": "Chad", "count": 12}}, {"type": "Feature", "geometry": {"type": "Point", "coordinates": [29.919061, -1.992751]}, "properties": {"cartodb_id": 199, "pop_2015": 3345000, "continent_name": "Africa", "country_code": "RWA", "country_name": "Rwanda", "count": null}}, {"type": "Feature", "geometry": {"type": "Point", "coordinates": [9.386034, 17.418464]}, "properties": {"cartodb_id": 107, "pop_2015": 3728000, "continent_name": "Africa", "country_code": "NER", "country_name": "Niger", "count": 8}}, {"type": "Feature", "geometry": {"type": "Point", "coordinates": [17.211133, -22.129247]}, "properties": {"cartodb_id": 110, "pop_2015": 1147000, "continent_name": "Africa", "country_code": "NAM", "country_name": "Namibia", "count": 2}}, {"type": "Feature", "geometry": {"type": "Point", "coordinates": [45.706144, 4.748837]}, "properties": {"cartodb_id": 141, "pop_2015": 4266000, "continent_name": "Africa", "country_code": "SOM", "country_name": "Somalia", "count": 4}}, {"type": "Feature", "geometry": {"type": "Point", "coordinates": [8.215354, 46.798957]}, "properties": {"cartodb_id": 2, "pop_2015": 6110000, "continent_name": "Europe", "country_code": "CHE", "country_name": "Switzerland", "count": 4}}, {"type": "Feature", "geometry": {"type": "Point", "coordinates": [16.754466, 62.7771]}, "properties": {"cartodb_id": 4, "pop_2015": 8371000, "continent_name": "Europe", "country_code": "SWE", "country_name": "Sweden", "count": 264}}, {"type": "Feature", "geometry": {"type": "Point", "coordinates": [22.974819, 39.051181]}, "properties": {"cartodb_id": 39, "pop_2015": 8535000, "continent_name": "Europe", "country_code": "GRC", "country_name": "Greece", "count": 121}}, {"type": "Feature", "geometry": {"type": "Point", "coordinates": [47.594624, 29.340042]}, "properties": {"cartodb_id": 183, "pop_2015": 3828000, "continent_name": "Asia", "country_code": "KWT", "country_name": "Kuwait", "count": 7}}, {"type": "Feature", "geometry": {"type": "Point", "coordinates": [2.448687, 46.620489]}, "properties": {"cartodb_id": 75, "pop_2015": 52792000, "continent_name": "Europe", "country_code": "FRA", "country_name": "France", "count": 301}}, {"type": "Feature", "geometry": {"type": "Point", "coordinates": [26.270795, 64.495359]}, "properties": {"cartodb_id": 70, "pop_2015": 4620000, "continent_name": "Europe", "country_code": "FIN", "country_name": "Finland", "count": 60}}, {"type": "Feature", "geometry": {"type": "Point", "coordinates": [24.908622, 56.851819]}, "properties": {"cartodb_id": 89, "pop_2015": 1333000, "continent_name": "Europe", "country_code": "LVA", "country_name": "Latvia", "count": 14}}, {"type": "Feature", "geometry": {"type": "Point", "coordinates": [19.394322, 52.124772]}, "properties": {"cartodb_id": 117, "pop_2015": 23020000, "continent_name": "Europe", "country_code": "POL", "country_name": "Poland", "count": 344}}, {"type": "Feature", "geometry": {"type": "Point", "coordinates": [24.972942, 45.853464]}, "properties": {"cartodb_id": 122, "pop_2015": 10830000, "continent_name": "Europe", "country_code": "ROM", "country_name": "Romania", "count": null}}, {"type": "Feature", "geometry": {"type": "Point", "coordinates": [20.790402, 44.221376]}, "properties": {"cartodb_id": 124, "pop_2015": 3937000, "continent_name": "Europe", "country_code": "SRB", "country_name": "Serbia", "count": 47}}, {"type": "Feature", "geometry": {"type": "Point", "coordinates": [17.773408, 44.171734]}, "properties": {"cartodb_id": 128, "pop_2015": 1515000, "continent_name": "Europe", "country_code": "BIH", "country_name": "Bosnia and Herzegovina", "count": 28}}, {"type": "Feature", "geometry": {"type": "Point", "coordinates": [25.217513, 42.768523]}, "properties": {"cartodb_id": 130, "pop_2015": 5307000, "continent_name": "Europe", "country_code": "BGR", "country_name": "Bulgaria", "count": 35}}, {"type": "Feature", "geometry": {"type": "Point", "coordinates": [14.80809, 46.116111]}, "properties": {"cartodb_id": 131, "pop_2015": 1026000, "continent_name": "Europe", "country_code": "SVN", "country_name": "Slovenia", "count": 35}}, {"type": "Feature", "geometry": {"type": "Point", "coordinates": [19.480383, 48.704935]}, "properties": {"cartodb_id": 134, "pop_2015": 2908000, "continent_name": "Europe", "country_code": "SVK", "country_name": "Slovak Republic", "count": null}}, {"type": "Feature", "geometry": {"type": "Point", "coordinates": [14.130673, 47.585657]}, "properties": {"cartodb_id": 148, "pop_2015": 5651000, "continent_name": "Europe", "country_code": "AUT", "country_name": "Austria", "count": 3}}, {"type": "Feature", "geometry": {"type": "Point", "coordinates": [21.68383, 41.595005]}, "properties": {"cartodb_id": 197, "pop_2015": 1187000, "continent_name": "Europe", "country_code": "MKD", "country_name": "Macedonia", "count": 37}}, {"type": "Feature", "geometry": {"type": "Point", "coordinates": [-8.145045, 53.178221]}, "properties": {"cartodb_id": 81, "pop_2015": 2947000, "continent_name": "Europe", "country_code": "IRL", "country_name": "Ireland", "count": 36}}, {"type": "Feature", "geometry": {"type": "Point", "coordinates": [-8.590838, 39.587147]}, "properties": {"cartodb_id": 118, "pop_2015": 6590000, "continent_name": "Europe", "country_code": "PRT", "country_name": "Portugal", "count": 300}}, {"type": "Feature", "geometry": {"type": "Point", "coordinates": [-3.652637, 40.227234]}, "properties": {"cartodb_id": 135, "pop_2015": 37015000, "continent_name": "Europe", "country_code": "ESP", "country_name": "Spain", "count": 20}}, {"type": "Feature", "geometry": {"type": "Point", "coordinates": [71.015834, 38.529886]}, "properties": {"cartodb_id": 5, "pop_2015": 2272000, "continent_name": "Asia", "country_code": "TJK", "country_name": "Tajikistan", "count": 11}}, {"type": "Feature", "geometry": {"type": "Point", "coordinates": [23.645114, -2.8798]}, "properties": {"cartodb_id": 59, "pop_2015": 32834000, "continent_name": "Africa", "country_code": "ZAR", "country_name": "Democratic Republic of the Congo", "count": 17}}, {"type": "Feature", "geometry": {"type": "Point", "coordinates": [-10.943061, 10.434649]}, "properties": {"cartodb_id": 41, "pop_2015": 4685000, "continent_name": "Africa", "country_code": "GIN", "country_name": "Guinea", "count": 4}}, {"type": "Feature", "geometry": {"type": "Point", "coordinates": [2.328741, 9.641217]}, "properties": {"cartodb_id": 49, "pop_2015": 4782000, "continent_name": "Africa", "country_code": "BEN", "country_name": "Benin", "count": 8}}, {"type": "Feature", "geometry": {"type": "Point", "coordinates": [54.300796, 23.905783]}, "properties": {"cartodb_id": 187, "pop_2015": 7833000, "continent_name": "Asia", "country_code": "ARE", "country_name": "United Arab Emirates", "count": 1}}, {"type": "Feature", "geometry": {"type": "Point", "coordinates": [56.092657, 20.601806]}, "properties": {"cartodb_id": 190, "pop_2015": 3487000, "continent_name": "Asia", "country_code": "OMN", "country_name": "Oman", "count": 2}}, {"type": "Feature", "geometry": {"type": "Point", "coordinates": [39.600551, 8.622952]}, "properties": {"cartodb_id": 71, "pop_2015": 19353000, "continent_name": "Africa", "country_code": "ETH", "country_name": "Ethiopia", "count": 21}}, {"type": "Feature", "geometry": {"type": "Point", "coordinates": [38.852944, 15.357514]}, "properties": {"cartodb_id": 67, "pop_2015": 1183000, "continent_name": "Africa", "country_code": "ERI", "country_name": "Eritrea", "count": null}}, {"type": "Feature", "geometry": {"type": "Point", "coordinates": [11.789569, -0.591656]}, "properties": {"cartodb_id": 77, "pop_2015": 1504000, "continent_name": "Africa", "country_code": "GAB", "country_name": "Gabon", "count": 4}}, {"type": "Feature", "geometry": {"type": "Point", "coordinates": [-5.569, 7.627967]}, "properties": {"cartodb_id": 62, "pop_2015": 12300000, "continent_name": "Africa", "country_code": "CIV", "country_name": "Cote d'Ivoire", "count": null}}, {"type": "Feature", "geometry": {"type": "Point", "coordinates": [-9.319864, 6.452233]}, "properties": {"cartodb_id": 92, "pop_2015": 2238000, "continent_name": "Africa", "country_code": "LBR", "country_name": "Liberia", "count": 6}}, {"type": "Feature", "geometry": {"type": "Point", "coordinates": [34.289908, -13.217226]}, "properties": {"cartodb_id": 94, "pop_2015": 2801000, "continent_name": "Africa", "country_code": "MWI", "country_name": "Malawi", "count": 13}}, {"type": "Feature", "geometry": {"type": "Point", "coordinates": [-3.539079, 17.344163]}, "properties": {"cartodb_id": 96, "pop_2015": 7025000, "continent_name": "Africa", "country_code": "MLI", "country_name": "Mali", "count": 5}}, {"type": "Feature", "geometry": {"type": "Point", "coordinates": [-10.343398, 20.256218]}, "properties": {"cartodb_id": 101, "pop_2015": 2435000, "continent_name": "Africa", "country_code": "MRT", "country_name": "Mauritania", "count": 1}}, {"type": "Feature", "geometry": {"type": "Point", "coordinates": [35.167239, 39.061081]}, "properties": {"cartodb_id": 7, "pop_2015": 56311000, "continent_name": "Europe", "country_code": "TUR", "country_name": "Turkey", "count": 2}}, {"type": "Feature", "geometry": {"type": "Point", "coordinates": [-71.364374, -37.743606]}, "properties": {"cartodb_id": 55, "pop_2015": 16069000, "continent_name": "South America", "country_code": "CHL", "country_name": "Chile", "count": 25}}, {"type": "Feature", "geometry": {"type": "Point", "coordinates": [-79.035212, 21.625298]}, "properties": {"cartodb_id": 58, "pop_2015": 8778000, "continent_name": "North America", "country_code": "CUB", "country_name": "Cuba", "count": 37}}, {"type": "Feature", "geometry": {"type": "Point", "coordinates": [12.736984, 5.693058]}, "properties": {"cartodb_id": 56, "pop_2015": 12695000, "continent_name": "Africa", "country_code": "CMR", "country_name": "Cameroon", "count": 24}}, {"type": "Feature", "geometry": {"type": "Point", "coordinates": [15.218336, -0.83888]}, "properties": {"cartodb_id": 57, "pop_2015": 3021000, "continent_name": "Africa", "country_code": "COG", "country_name": "Republic of Congo", "count": null}}, {"type": "Feature", "geometry": {"type": "Point", "coordinates": [32.36704, 1.275691]}, "properties": {"cartodb_id": 162, "pop_2015": 6285000, "continent_name": "Africa", "country_code": "UGA", "country_name": "Uganda", "count": 18}}, {"type": "Feature", "geometry": {"type": "Point", "coordinates": [34.813586, -6.275097]}, "properties": {"cartodb_id": 1, "pop_2015": 16901000, "continent_name": "Africa", "country_code": "TZA", "country_name": "Tanzania", "count": 34}}, {"type": "Feature", "geometry": {"type": "Point", "coordinates": [-1.755528, 12.269554]}, "properties": {"cartodb_id": 146, "pop_2015": 5406000, "continent_name": "Africa", "country_code": "BFA", "country_name": "Burkina Faso", "count": 11}}, {"type": "Feature", "geometry": {"type": "Point", "coordinates": [36.770923, 31.245575]}, "properties": {"cartodb_id": 176, "pop_2015": 5622000, "continent_name": "Asia", "country_code": "JOR", "country_name": "Jordan", "count": 20}}, {"type": "Feature", "geometry": {"type": "Point", "coordinates": [29.875083, -3.357425]}, "properties": {"cartodb_id": 159, "pop_2015": 1348000, "continent_name": "Africa", "country_code": "BDI", "country_name": "Burundi", "count": 7}}, {"type": "Feature", "geometry": {"type": "Point", "coordinates": [10.381494, 51.106363]}, "properties": {"cartodb_id": 80, "pop_2015": 60796000, "continent_name": "Europe", "country_code": "DEU", "country_name": "Germany", "count": 46}}, {"type": "Feature", "geometry": {"type": "Point", "coordinates": [19.396759, 47.163244]}, "properties": {"cartodb_id": 84, "pop_2015": 7006000, "continent_name": "Europe", "country_code": "HUN", "country_name": "Hungary", "count": 9}}, {"type": "Feature", "geometry": {"type": "Point", "coordinates": [12.071907, 42.786434]}, "properties": {"cartodb_id": 87, "pop_2015": 42325000, "continent_name": "Europe", "country_code": "ITA", "country_name": "Italy", "count": 13}}, {"type": "Feature", "geometry": {"type": "Point", "coordinates": [16.398549, 45.067726]}, "properties": {"cartodb_id": 63, "pop_2015": 2492000, "continent_name": "Europe", "country_code": "HRV", "country_name": "Croatia", "count": 50}}, {"type": "Feature", "geometry": {"type": "Point", "coordinates": [10.05139, 55.965378]}, "properties": {"cartodb_id": 64, "pop_2015": 4962000, "continent_name": "Europe", "country_code": "DNK", "country_name": "Denmark", "count": 17}}, {"type": "Feature", "geometry": {"type": "Point", "coordinates": [15.314103, 49.732448]}, "properties": {"cartodb_id": 66, "pop_2015": 7700000, "continent_name": "Europe", "country_code": "CZE", "country_name": "Czech Republic", "count": 155}}, {"type": "Feature", "geometry": {"type": "Point", "coordinates": [23.888249, 55.327024]}, "properties": {"cartodb_id": 93, "pop_2015": 1942000, "continent_name": "Europe", "country_code": "LTU", "country_name": "Lithuania", "count": 18}}, {"type": "Feature", "geometry": {"type": "Point", "coordinates": [28.461397, 47.195101]}, "properties": {"cartodb_id": 100, "pop_2015": 1592000, "continent_name": "Europe", "country_code": "MDA", "country_name": "Moldova", "count": 14}}, {"type": "Feature", "geometry": {"type": "Point", "coordinates": [5.553069, 52.252243]}, "properties": {"cartodb_id": 104, "pop_2015": 15290000, "continent_name": "Europe", "country_code": "NLD", "country_name": "Netherlands", "count": 42}}, {"type": "Feature", "geometry": {"type": "Point", "coordinates": [20.464809, 6.566322]}, "properties": {"cartodb_id": 54, "pop_2015": 1962000, "continent_name": "Africa", "country_code": "", "country_name": "Central African Republic", "count": 6}}, {"type": "Feature", "geometry": {"type": "Point", "coordinates": [101.003333, 15.1144]}, "properties": {"cartodb_id": 3, "pop_2015": 34234000, "continent_name": "Asia", "country_code": "THA", "country_name": "Thailand", "count": 153}}, {"type": "Feature", "geometry": {"type": "Point", "coordinates": [35.538106, -17.27001]}, "properties": {"cartodb_id": 111, "pop_2015": 9013000, "continent_name": "Africa", "country_code": "MOZ", "country_name": "Mozambique", "count": 6}}, {"type": "Feature", "geometry": {"type": "Point", "coordinates": [8.091239, 9.595315]}, "properties": {"cartodb_id": 116, "pop_2015": 87049000, "continent_name": "Africa", "country_code": "NGA", "country_name": "Nigeria", "count": 90}}, {"type": "Feature", "geometry": {"type": "Point", "coordinates": [-14.471306, 14.367789]}, "properties": {"cartodb_id": 123, "pop_2015": 6615000, "continent_name": "Africa", "country_code": "SEN", "country_name": "Senegal", "count": 6}}, {"type": "Feature", "geometry": {"type": "Point", "coordinates": [-64.684754, -16.706877]}, "properties": {"cartodb_id": 50, "pop_2015": 7348000, "continent_name": "South America", "country_code": "BOL", "country_name": "Bolivia", "count": 16}}, {"type": "Feature", "geometry": {"type": "Point", "coordinates": [-78.772282, -1.426241]}, "properties": {"cartodb_id": 69, "pop_2015": 10291000, "continent_name": "South America", "country_code": "ECU", "country_name": "Ecuador", "count": 20}}, {"type": "Feature", "geometry": {"type": "Point", "coordinates": [-74.378065, -9.154388]}, "properties": {"cartodb_id": 115, "pop_2015": 24665000, "continent_name": "South America", "country_code": "PER", "country_name": "Peru", "count": 149}}, {"type": "Feature", "geometry": {"type": "Point", "coordinates": [-86.625227, 14.821009]}, "properties": {"cartodb_id": 82, "pop_2015": 4419000, "continent_name": "South America", "country_code": "HND", "country_name": "Honduras", "count": 47}}, {"type": "Feature", "geometry": {"type": "Point", "coordinates": [-70.496587, 18.896366]}, "properties": {"cartodb_id": 65, "pop_2015": 8315000, "continent_name": "South America", "country_code": "DOM", "country_name": "Dominican Republic", "count": 36}}, {"type": "Feature", "geometry": {"type": "Point", "coordinates": [-102.530308, 23.949171]}, "properties": {"cartodb_id": 103, "pop_2015": 100656000, "continent_name": "North America", "country_code": "MEX", "country_name": "Mexico", "count": 106}}, {"type": "Feature", "geometry": {"type": "Point", "coordinates": [-85.033338, 12.845393]}, "properties": {"cartodb_id": 106, "pop_2015": 3575000, "continent_name": "South America", "country_code": "NIC", "country_name": "Nicaragua", "count": 15}}, {"type": "Feature", "geometry": {"type": "Point", "coordinates": [-88.870923, 13.735849]}, "properties": {"cartodb_id": 166, "pop_2015": 4088000, "continent_name": "South America", "country_code": "SLV", "country_name": "El Salvador", "count": 7}}, {"type": "Feature", "geometry": {"type": "Point", "coordinates": [-90.360152, 15.695985]}, "properties": {"cartodb_id": 172, "pop_2015": 8428000, "continent_name": "North America", "country_code": "GTM", "country_name": "Guatemala", "count": 33}}, {"type": "Feature", "geometry": {"type": "Point", "coordinates": [43.744977, 33.039804]}, "properties": {"cartodb_id": 86, "pop_2015": 24822000, "continent_name": "Asia", "country_code": "IRQ", "country_name": "Iraq", "count": 10}}, {"type": "Feature", "geometry": {"type": "Point", "coordinates": [38.504564, 35.023003]}, "properties": {"cartodb_id": 143, "pop_2015": 13127000, "continent_name": "Asia", "country_code": "SYR", "country_name": "Syria", "count": 43}}, {"type": "Feature", "geometry": {"type": "Point", "coordinates": [44.536864, 24.122327]}, "properties": {"cartodb_id": 125, "pop_2015": 26220000, "continent_name": "Asia", "country_code": "SAU", "country_name": "Saudi Arabia", "count": 11}}, {"type": "Feature", "geometry": {"type": "Point", "coordinates": [51.186831, 25.313075]}, "properties": {"cartodb_id": 200, "pop_2015": 2218000, "continent_name": "Asia", "country_code": "QAT", "country_name": "Qatar", "count": 3}}, {"type": "Feature", "geometry": {"type": "Point", "coordinates": [50.546619, 26.052784]}, "properties": {"cartodb_id": 127, "pop_2015": 1223000, "continent_name": "Asia", "country_code": "BHR", "country_name": "Bahrain", "count": 1}}, {"type": "Feature", "geometry": {"type": "Point", "coordinates": [44.932301, 40.288134]}, "properties": {"cartodb_id": 147, "pop_2015": 1891000, "continent_name": "Asia", "country_code": "ARM", "country_name": "Armenia", "count": 36}}, {"type": "Feature", "geometry": {"type": "Point", "coordinates": [35.197812, 31.916083]}, "properties": {"cartodb_id": 209, "pop_2015": 3313000, "continent_name": "Europe", "country_code": "WBG", "country_name": "West Bank and Gaza", "count": null}}, {"type": "Feature", "geometry": {"type": "Point", "coordinates": [54.276947, 32.570678]}, "properties": {"cartodb_id": 42, "pop_2015": 58046000, "continent_name": "Asia", "country_code": "IRN", "country_name": "Iran, Islamic Rep.", "count": null}}, {"type": "Feature", "geometry": {"type": "Point", "coordinates": [43.507526, 42.168801]}, "properties": {"cartodb_id": 73, "pop_2015": 2407000, "continent_name": "Europe", "country_code": "GEO", "country_name": "Georgia", "count": 9}}, {"type": "Feature", "geometry": {"type": "Point", "coordinates": [74.541669, 41.461919]}, "properties": {"cartodb_id": 90, "pop_2015": 2119000, "continent_name": "Asia", "country_code": "KGZ", "country_name": "Kyrgyz Republic", "count": null}}, {"type": "Feature", "geometry": {"type": "Point", "coordinates": [79.615722, 22.887952]}, "properties": {"cartodb_id": 83, "pop_2015": 429330000, "continent_name": "Asia", "country_code": "IND", "country_name": "India", "count": 1}}, {"type": "Feature", "geometry": {"type": "Point", "coordinates": [83.916253, 28.247922]}, "properties": {"cartodb_id": 109, "pop_2015": 5308000, "continent_name": "Asia", "country_code": "NPL", "country_name": "Nepal", "count": 6}}, {"type": "Feature", "geometry": {"type": "Point", "coordinates": [80.703163, 7.615915]}, "properties": {"cartodb_id": 140, "pop_2015": 3815000, "continent_name": "Asia", "country_code": "LKA", "country_name": "Sri Lanka", "count": 12}}, {"type": "Feature", "geometry": {"type": "Point", "coordinates": [127.819094, 36.373354]}, "properties": {"cartodb_id": 88, "pop_2015": 41791000, "continent_name": "Asia", "country_code": "KOR", "country_name": "Korea, Rep.", "count": null}}, {"type": "Feature", "geometry": {"type": "Point", "coordinates": [103.737872, 18.502302]}, "properties": {"cartodb_id": 91, "pop_2015": 2627000, "continent_name": "Asia", "country_code": "LAO", "country_name": "Laos", "count": 15}}, {"type": "Feature", "geometry": {"type": "Point", "coordinates": [104.902804, 12.715562]}, "properties": {"cartodb_id": 52, "pop_2015": 3228000, "continent_name": "Asia", "country_code": "KHM", "country_name": "Cambodia", "count": 4}}, {"type": "Feature", "geometry": {"type": "Point", "coordinates": [103.056287, 46.825806]}, "properties": {"cartodb_id": 102, "pop_2015": 2132000, "continent_name": "Asia", "country_code": "MNG", "country_name": "Mongolia", "count": 39}}, {"type": "Feature", "geometry": {"type": "Point", "coordinates": [97.558594, 35.317366]}, "properties": {"cartodb_id": 51, "pop_2015": 762879000, "continent_name": "Asia", "country_code": "CHN", "country_name": "China", "count": 1849}}, {"type": "Feature", "geometry": {"type": "Point", "coordinates": [63.139909, 41.756036]}, "properties": {"cartodb_id": 12, "pop_2015": 11319000, "continent_name": "Asia", "country_code": "UZB", "country_name": "Uzbekistan", "count": 26}}, {"type": "Feature", "geometry": {"type": "Point", "coordinates": [-2.886951, 54.147048]}, "properties": {"cartodb_id": 14, "pop_2015": 53566000, "continent_name": "Europe", "country_code": "GBR", "country_name": "United Kingdom", "count": 11}}, {"type": "Feature", "geometry": {"type": "Point", "coordinates": [-56.017155, -32.798211]}, "properties": {"cartodb_id": 8, "pop_2015": 3271000, "continent_name": "South America", "country_code": "URY", "country_name": "Uruguay", "count": 13}}, {"type": "Feature", "geometry": {"type": "Point", "coordinates": [-66.16884, 7.127732]}, "properties": {"cartodb_id": 10, "pop_2015": 27683000, "continent_name": "South America", "country_code": "VEN", "country_name": "Venezuela", "count": 48}}, {"type": "Feature", "geometry": {"type": "Point", "coordinates": [27.774212, -13.46011]}, "properties": {"cartodb_id": 16, "pop_2015": 6634000, "continent_name": "Africa", "country_code": "ZMB", "country_name": "Zambia", "count": 6}}, {"type": "Feature", "geometry": {"type": "Point", "coordinates": [29.851885, -19.002537]}, "properties": {"cartodb_id": 17, "pop_2015": 5052000, "continent_name": "Africa", "country_code": "ZWE", "country_name": "Zimbabwe", "count": 10}}, {"type": "Feature", "geometry": {"type": "Point", "coordinates": [106.300935, 16.642183]}, "properties": {"cartodb_id": 13, "pop_2015": 30744000, "continent_name": "Asia", "country_code": "VNM", "country_name": "Vietnam", "count": 86}}, {"type": "Feature", "geometry": {"type": "Point", "coordinates": [96.489289, 21.16767]}, "properties": {"cartodb_id": 112, "pop_2015": 18378000, "continent_name": "Asia", "country_code": "MMR", "country_name": "Myanmar", "count": 19}}, {"type": "Feature", "geometry": {"type": "Point", "coordinates": [96.693761, 61.984555]}, "properties": {"cartodb_id": 120, "pop_2015": 106079000, "continent_name": "Asia", "country_code": "RUS", "country_name": "Russian Federation", "count": null}}, {"type": "Feature", "geometry": {"type": "Point", "coordinates": [37.82244, 0.550766]}, "properties": {"cartodb_id": 23, "pop_2015": 11799000, "continent_name": "Africa", "country_code": "KEN", "country_name": "Kenya", "count": 12}}, {"type": "Feature", "geometry": {"type": "Point", "coordinates": [67.286999, 48.155651]}, "properties": {"cartodb_id": 25, "pop_2015": 9312000, "continent_name": "Asia", "country_code": "KAZ", "country_name": "Kazakhstan", "count": 35}}, {"type": "Feature", "geometry": {"type": "Point", "coordinates": [127.183778, 40.150643]}, "properties": {"cartodb_id": 26, "pop_2015": 15313000, "continent_name": "Asia", "country_code": "PRK", "country_name": "Korea, Dem. Rep.", "count": null}}, {"type": "Feature", "geometry": {"type": "Point", "coordinates": [47.590602, 15.905421]}, "properties": {"cartodb_id": 15, "pop_2015": 9286000, "continent_name": "Asia", "country_code": "YEM", "country_name": "Yemen", "count": 42}}, {"type": "Feature", "geometry": {"type": "Point", "coordinates": [47.542111, 40.289119]}, "properties": {"cartodb_id": 45, "pop_2015": 5263000, "continent_name": "Asia", "country_code": "AZE", "country_name": "Azerbaijan", "count": 39}}, {"type": "Feature", "geometry": {"type": "Point", "coordinates": [-8.396435, 29.841692]}, "properties": {"cartodb_id": 105, "pop_2015": 20694000, "continent_name": "Africa", "country_code": "MAR", "country_name": "Morocco", "count": 28}}, {"type": "Feature", "geometry": {"type": "Point", "coordinates": [103.813468, 1.358921]}, "properties": {"cartodb_id": 204, "pop_2015": 5563000, "continent_name": "Asia", "country_code": "SGP", "country_name": "Singapore", "count": 2}}, {"type": "Feature", "geometry": {"type": "Point", "coordinates": [29.861209, 26.49292]}, "properties": {"cartodb_id": 68, "pop_2015": 39472000, "continent_name": "Africa", "country_code": "EGY", "country_name": "Egypt", "count": 36}}, {"type": "Feature", "geometry": {"type": "Point", "coordinates": [-77.31881, 18.155226]}, "properties": {"cartodb_id": 175, "pop_2015": 1498000, "continent_name": "South America", "country_code": "JAM", "country_name": "Jamaica", "count": 6}}, {"type": "Feature", "geometry": {"type": "Point", "coordinates": [-66.4676, 18.223816]}, "properties": {"cartodb_id": 201, "pop_2015": 3315000, "continent_name": "South America", "country_code": "PRI", "country_name": "Puerto Rico", "count": null}}, {"type": "Feature", "geometry": {"type": "Point", "coordinates": [171.470686, -41.829522]}, "properties": {"cartodb_id": 108, "pop_2015": 3927000, "continent_name": "Oceania", "country_code": "NZL", "country_name": "New Zealand", "count": 16}}, {"type": "Feature", "geometry": {"type": "Point", "coordinates": [23.798987, -22.185772]}, "properties": {"cartodb_id": 129, "pop_2015": 1300000, "continent_name": "Africa", "country_code": "BWA", "country_name": "Botswana", "count": 9}}, {"type": "Feature", "geometry": {"type": "Point", "coordinates": [-11.795016, 8.563086]}, "properties": {"cartodb_id": 133, "pop_2015": 2578000, "continent_name": "Africa", "country_code": "SLE", "country_name": "Sierra Leone", "count": 7}}, {"type": "Feature", "geometry": {"type": "Point", "coordinates": [30.30112, 7.283531]}, "properties": {"cartodb_id": 136, "pop_2015": 2320000, "continent_name": "Africa", "country_code": "SSD", "country_name": "South Sudan", "count": 4}}, {"type": "Feature", "geometry": {"type": "Point", "coordinates": [25.087364, -29.001032]}, "properties": {"cartodb_id": 137, "pop_2015": 35611000, "continent_name": "Africa", "country_code": "", "country_name": "South Africa", "count": 63}}, {"type": "Feature", "geometry": {"type": "Point", "coordinates": [29.939618, 15.986881]}, "properties": {"cartodb_id": 138, "pop_2015": 13602000, "continent_name": "Africa", "country_code": "SDN", "country_name": "Sudan", "count": 15}}, {"type": "Feature", "geometry": {"type": "Point", "coordinates": [0.962272, 8.526788]}, "properties": {"cartodb_id": 208, "pop_2015": 2919000, "continent_name": "Africa", "country_code": "TGO", "country_name": "Togo", "count": 4}}, {"type": "Feature", "geometry": {"type": "Point", "coordinates": [46.705998, -19.373168]}, "properties": {"cartodb_id": 95, "pop_2015": 8508000, "continent_name": "Africa", "country_code": "MDG", "country_name": "Madagascar", "count": 22}}, {"type": "Feature", "geometry": {"type": "Point", "coordinates": [9.554626, 34.119405]}, "properties": {"cartodb_id": 21, "pop_2015": 7421000, "continent_name": "Africa", "country_code": "TUN", "country_name": "Tunisia", "count": 30}}, {"type": "Feature", "geometry": {"type": "Point", "coordinates": [137.978348, 37.551177]}, "properties": {"cartodb_id": 179, "pop_2015": 118785000, "continent_name": "Asia", "country_code": "JPN", "country_name": "Japan", "count": 187}}, {"type": "Feature", "geometry": {"type": "Point", "coordinates": [-53.092482, -10.780859]}, "properties": {"cartodb_id": 20, "pop_2015": 178098000, "continent_name": "South America", "country_code": "BRA", "country_name": "Brazil", "count": 406}}, {"type": "Feature", "geometry": {"type": "Point", "coordinates": [-73.083842, 3.909413]}, "properties": {"cartodb_id": 61, "pop_2015": 36864000, "continent_name": "South America", "country_code": "COL", "country_name": "Colombia", "count": 141}}, {"type": "Feature", "geometry": {"type": "Point", "coordinates": [-84.193598, 9.97331]}, "properties": {"cartodb_id": 60, "pop_2015": 3693000, "continent_name": "South America", "country_code": "CRI", "country_name": "Costa Rica", "count": 22}}, {"type": "Feature", "geometry": {"type": "Point", "coordinates": [134.491119, -25.732311]}, "properties": {"cartodb_id": 47, "pop_2015": 21258000, "continent_name": "Oceania", "country_code": "AUS", "country_name": "Australia", "count": 11}}, {"type": "Feature", "geometry": {"type": "Point", "coordinates": [-1.216524, 7.953955]}, "properties": {"cartodb_id": 22, "pop_2015": 14813000, "continent_name": "Africa", "country_code": "GHA", "country_name": "Ghana", "count": 3}}, {"type": "Feature", "geometry": {"type": "Point", "coordinates": [2.653091, 28.14889]}, "properties": {"cartodb_id": 34, "pop_2015": 28055000, "continent_name": "Africa", "country_code": "DZA", "country_name": "Algeria", "count": null}}, {"type": "Feature", "geometry": {"type": "Point", "coordinates": [35.879936, 33.920359]}, "properties": {"cartodb_id": 185, "pop_2015": 4030000, "continent_name": "Asia", "country_code": "LBN", "country_name": "Lebanon", "count": 4}}, {"type": "Feature", "geometry": {"type": "Point", "coordinates": [18.009605, 27.030278]}, "properties": {"cartodb_id": 193, "pop_2015": 4932000, "continent_name": "Africa", "country_code": "LBY", "country_name": "Libya", "count": 11}}, {"type": "Feature", "geometry": {"type": "Point", "coordinates": [17.536985, -12.292316]}, "properties": {"cartodb_id": 31, "pop_2015": 11022000, "continent_name": "Africa", "country_code": "AGO", "country_name": "Angola", "count": 8}}, {"type": "Feature", "geometry": {"type": "Point", "coordinates": [20.053819, 41.142482]}, "properties": {"cartodb_id": 32, "pop_2015": 1668000, "continent_name": "Europe", "country_code": "ALB", "country_name": "Albania", "count": 50}}, {"type": "Feature", "geometry": {"type": "Point", "coordinates": [31.385748, 48.997369]}, "properties": {"cartodb_id": 195, "pop_2015": 31407000, "continent_name": "Europe", "country_code": "UKR", "country_name": "Ukraine", "count": 171}}, {"type": "Feature", "geometry": {"type": "Point", "coordinates": [-65.178191, -35.387551]}, "properties": {"cartodb_id": 36, "pop_2015": 39835000, "continent_name": "South America", "country_code": "ARG", "country_name": "Argentina", "count": 147}}, {"type": "Feature", "geometry": {"type": "Point", "coordinates": [66.008447, 33.836267]}, "properties": {"cartodb_id": 35, "pop_2015": 8686000, "continent_name": "Asia", "country_code": "AFG", "country_name": "Afghanistan", "count": 53}}, {"type": "Feature", "geometry": {"type": "Point", "coordinates": [90.242, 23.845678]}, "properties": {"cartodb_id": 149, "pop_2015": 55184000, "continent_name": "Asia", "country_code": "BGD", "country_name": "Bangladesh", "count": 24}}, {"type": "Feature", "geometry": {"type": "Point", "coordinates": [114.131447, 22.384637]}, "properties": {"cartodb_id": 168, "pop_2015": 7287000, "continent_name": "Asia", "country_code": "HKG", "country_name": "Hong Kong SAR, China", "count": null}}, {"type": "Feature", "geometry": {"type": "Point", "coordinates": [34.996034, 31.44396]}, "properties": {"cartodb_id": 178, "pop_2015": 7687000, "continent_name": "Asia", "country_code": "ISR", "country_name": "Israel", "count": 15}}, {"type": "Feature", "geometry": {"type": "Point", "coordinates": [4.639961, 50.637462]}, "properties": {"cartodb_id": 19, "pop_2015": 11027000, "continent_name": "Europe", "country_code": "BEL", "country_name": "Belgium", "count": 3}}, {"type": "Feature", "geometry": {"type": "Point", "coordinates": [14.130028, 64.454837]}, "properties": {"cartodb_id": 24, "pop_2015": 4175000, "continent_name": "Europe", "country_code": "NOR", "country_name": "Norway", "count": 43}}, {"type": "Feature", "geometry": {"type": "Point", "coordinates": [28.033566, 53.53188]}, "properties": {"cartodb_id": 46, "pop_2015": 7322000, "continent_name": "Europe", "country_code": "BLR", "country_name": "Belarus", "count": 39}}, {"type": "Feature", "geometry": {"type": "Point", "coordinates": [-106.875, 55.078367]}, "properties": {"cartodb_id": 53, "pop_2015": 29352000, "continent_name": "North America", "country_code": "CAN", "country_name": "Canada", "count": 127}}, {"type": "Feature", "geometry": {"type": "Point", "coordinates": [-102.128906, 40.044438]}, "properties": {"cartodb_id": 11, "pop_2015": 261844000, "continent_name": "North America", "country_code": "USA", "country_name": "United States", "count": 248}}, {"type": "Feature", "geometry": {"type": "Point", "coordinates": [117.270434, -2.222961]}, "properties": {"cartodb_id": 43, "pop_2015": 138420000, "continent_name": "Asia", "country_code": "IDN", "country_name": "Indonesia", "count": 1045}}, {"type": "Feature", "geometry": {"type": "Point", "coordinates": [109.698869, 3.792393]}, "properties": {"cartodb_id": 97, "pop_2015": 22659000, "continent_name": "Asia", "country_code": "MYS", "country_name": "Malaysia", "count": 47}}, {"type": "Feature", "geometry": {"type": "Point", "coordinates": [122.874484, 11.763015]}, "properties": {"cartodb_id": 119, "pop_2015": 44683000, "continent_name": "Asia", "country_code": "PHL", "country_name": "Philippines", "count": 507}}, {"type": "Feature", "geometry": {"type": "Point", "coordinates": [-15.397582, 13.44973]}, "properties": {"cartodb_id": 171, "pop_2015": 1187000, "continent_name": "Africa", "country_code": "GMB", "country_name": "Gambia, The", "count": null}}, {"type": "Feature", "geometry": {"type": "Point", "coordinates": [-72.690874, 18.938371]}, "properties": {"cartodb_id": 173, "pop_2015": 6282000, "continent_name": "South America", "country_code": "HTI", "country_name": "Haiti", "count": 11}}, {"type": "Feature", "geometry": {"type": "Point", "coordinates": [-58.398423, -23.227519]}, "properties": {"cartodb_id": 181, "pop_2015": 3961000, "continent_name": "South America", "country_code": "PRY", "country_name": "Paraguay", "count": 24}}, {"type": "Feature", "geometry": {"type": "Point", "coordinates": [-80.121295, 8.514557]}, "properties": {"cartodb_id": 191, "pop_2015": 2616000, "continent_name": "South America", "country_code": "PAN", "country_name": "Panama", "count": 24}}]}